{"type": "FeatureCollection", "features": [{"type": "Feature", "geometry": {"type": "Point", "coordinates": [-33.8708902, 151.2074116]}, "properties": {"name": "QT Sydney", "address": "49 Market Street, Sydney"}}, {"type": "Feature", "geometry": {"type": "Point", "coordinates": [-33.8622576, 151.2128469]}, "properties": {"name": "Sir Stamford at Circular Quay", "address": "93 Macquarie Street, Sydney"}}, {"type": "Feature", "geometry": {"type": "Point", "coordinates": [-33.8643922, 151.2063162]}, "properties": {"name": "Amora Hotel Jamison Sydney", "address": "11 Jamison Street, Sydney"}}, {"type": "Feature", "geometry": {"type": "Point", "coordinates": [-33.8703191, 151.2073863]}, "properties": {"name": "Hotel Swiss\u00f4tel Sydney", "address": "68 Market Street, Sydney"}}, {"type": "Feature", "geometry": {"type": "Point", "coordinates": [-33.8703417, 151.1979222]}, "properties": {"name": "The Little Snail Restaurant", "address": "3/50 Murray Street, Pyrmont"}}, {"type": "Feature", "geometry": {"type": "Point", "coordinates": [-33.872522, 151.2090122]}, "properties": {"name": "Castlereagh Boutique Hotel", "address": "169 Castlereagh Street, Sydney"}}, {"type": "Feature", "geometry": {"type": "Point", "coordinates": [-33.8722357, 151.2020326]}, "properties": {"name": "Nick's Seafood Restaurant", "address": "T.102 Cockle Bay Wharf, Sydney"}}, {"type": "Feature", "geometry": {"type": "Point", "coordinates": [-33.8666848, 151.2015819]}, "properties": {"name": "Steersons Steakhouse", "address": "17 Lime Street, Sydney"}}, {"type": "Feature", "geometry": {"type": "Point", "coordinates": [-33.8803991, 151.1986152]}, "properties": {"name": "Metro Aspire Hotel Sydney", "address": "383-389 Bulwara Road, Ultimo"}}, {"type": "Feature", "geometry": {"type": "Point", "coordinates": [-33.8648016, 151.2054365]}, "properties": {"name": "Travelodge Hotel Sydney Wynyard", "address": "7-9 York Street, Sydney"}}, {"type": "Feature", "geometry": {"type": "Point", "coordinates": [-33.859869, 151.2077869]}, "properties": {"name": "Rendezvous Hotel Sydney The Rocks", "address": "75 Harrington Street, Sydney"}}, {"type": "Feature", "geometry": {"type": "Point", "coordinates": [-33.870465, 151.208888]}, "properties": {"name": "360 Bar and Dining", "address": "F4 Castlereagh Street, Sydney"}}, {"type": "Feature", "geometry": {"type": "Point", "coordinates": [-33.8603679, 151.2066662]}, "properties": {"name": "Sydney Harbour Bed & Breakfast", "address": "140-142 Cumberland Street, The Rocks"}}, {"type": "Feature", "geometry": {"type": "Point", "coordinates": [-33.8588662, 151.2083903]}, "properties": {"name": "Pancakes On The Rocks", "address": "22 Playfair Street, The Rocks"}}, {"type": "Feature", "geometry": {"type": "Point", "coordinates": [-33.873218, 151.20501]}, "properties": {"name": "Base Backpackers Sydney", "address": "477 Kent Street, Sydney"}}, {"type": "Feature", "geometry": {"type": "Point", "coordinates": [-33.879202, 151.206925]}, "properties": {"name": "Metro Hotel Marlow Sydney Central", "address": "431-439 Pitt Street, Haymarket"}}, {"type": "Feature", "geometry": {"type": "Point", "coordinates": [-33.866664, 151.2014112]}, "properties": {"name": "Georges Mediterranean Bar & Grill", "address": "King Street Wharf, 3 The Promenade, Sydney"}}, {"type": "Feature", "geometry": {"type": "Point", "coordinates": [-33.8786968, 151.2095483]}, "properties": {"name": "Vibe Hotel Sydney", "address": "111 Goulburn Street, Sydney"}}, {"type": "Feature", "geometry": {"type": "Point", "coordinates": [-33.8718109, 151.202198]}, "properties": {"name": "Adria Bar Restaurant", "address": "T.107 Cockle Bay Wharf, Darling Harbour"}}, {"type": "Feature", "geometry": {"type": "Point", "coordinates": [-33.8716577, 151.2022001]}, "properties": {"name": "I'm Angus Steakhouse", "address": "T.109 Cockle Bay Wharf, Sydney"}}]}